[
  {
    "name": "Amaru",
    "rating": 93,
    "style": "Contemporary",
    "region": "Australian",
    "comment": "High end fine dining without the \"notions\"",
    "latitude": -37.8558133,
    "longitude": 145.0249461,
    "map": "https://maps.app.goo.gl/RTJKMhX679KiGFWM6",
    "occasion": "Restaurant",
    "price": 5.0,
    "images": [
      "pics/Amaru/20250705_183629.jpg",
      "pics/Amaru/20250705_183820.jpg",
      "pics/Amaru/20250705_184038.jpg",
      "pics/Amaru/20250705_184042.jpg",
      "pics/Amaru/20250705_184216.jpg",
      "pics/Amaru/20250705_190006.jpg",
      "pics/Amaru/20250705_191250.jpg",
      "pics/Amaru/20250705_192415.jpg",
      "pics/Amaru/20250705_192420.jpg",
      "pics/Amaru/20250705_194702.jpg",
      "pics/Amaru/20250705_194709.jpg",
      "pics/Amaru/20250705_194715.jpg",
      "pics/Amaru/20250705_200835.jpg",
      "pics/Amaru/20250705_200842.jpg",
      "pics/Amaru/20250705_203747.jpg",
      "pics/Amaru/20250705_211246.jpg",
      "pics/Amaru/20250705_212326.jpg",
      "pics/Amaru/20250705_212336.jpg",
      "pics/Amaru/20250705_212342.jpg",
      "pics/Amaru/20250705_212349.jpg"
    ]
  },
  {
    "name": "Bar Lourinha",
    "rating": 74,
    "style": "Tapas Bar",
    "region": "European",
    "comment": "Cosy Tapas bar, easy for walk in and bar seating",
    "latitude": -37.812815,
    "longitude": 144.9725185,
    "map": "https://maps.app.goo.gl/dXDSmLfufyqztqDM6",
    "occasion": "Restaurant",
    "price": 2.5,
    "images": [
      "pics/Bar Lourinha/IMG_7582.jpg",
      "pics/Bar Lourinha/IMG_7583.jpg",
      "pics/Bar Lourinha/IMG_7584.jpg",
      "pics/Bar Lourinha/IMG_7585.jpg",
      "pics/Bar Lourinha/IMG_7586.jpg",
      "pics/Bar Lourinha/IMG_7587.jpg",
      "pics/Bar Lourinha/IMG_7594.jpg"
    ]
  },
  {
    "name": "Cecconis",
    "rating": 79,
    "style": "Italian",
    "region": "European",
    "comment": "Busy old Italian joint. Solid meal, incredible steak but overpriced.",
    "latitude": -37.8150555,
    "longitude": 144.9725293,
    "map": "https://maps.app.goo.gl/WKG9LKfed5bNknXaA",
    "occasion": "Restaurant",
    "price": 4.0,
    "images": []
  },
  {
    "name": "City Wine Shop",
    "rating": 81,
    "style": "Wine Bar",
    "region": "Australian",
    "comment": "Another local of ours, decent food if you can get a table outside. Great wine",
    "latitude": -37.8109802,
    "longitude": 144.9725379,
    "map": "https://maps.app.goo.gl/Jn59tJWgC9dMXooD6",
    "occasion": "Restaurant",
    "price": 3.0,
    "images": []
  },
  {
    "name": "Coda",
    "rating": 76,
    "style": "Asian Fusion",
    "region": "Asia",
    "comment": "Sister restaurant of Tonka, solid but nicer places nearby",
    "latitude": -37.8157661,
    "longitude": 144.9698897,
    "map": "https://maps.app.goo.gl/91Ss4oHnkC5etsMVA",
    "occasion": "Restaurant",
    "price": 3.5,
    "images": []
  },
  {
    "name": "Cumulus Inc",
    "rating": 85,
    "style": "Contemporary",
    "region": "Australian",
    "comment": "Another Melbourne staple, busy but delicous",
    "latitude": -37.8149132,
    "longitude": 144.9731229,
    "map": "https://maps.app.goo.gl/tNeFVUPnGVJWWdSn8",
    "occasion": "Restaurant",
    "price": 3.5,
    "images": []
  },
  {
    "name": "Cutler",
    "rating": 84,
    "style": "Contemporary",
    "region": "Australian",
    "comment": "Went for a wine event but food was also delicious",
    "latitude": -37.805465,
    "longitude": 144.9758993,
    "map": "https://maps.app.goo.gl/a7mZmTwbrExYfUEi6",
    "occasion": "Restaurant",
    "price": 3.5,
    "images": [
      "pics/Cutler/IMG_7486.jpg",
      "pics/Cutler/IMG_7487.jpg"
    ]
  },
  {
    "name": "Di Stasia Citta",
    "rating": 62,
    "style": "Italian",
    "region": "European",
    "comment": "Overpriced Italian restaurant, nothing special",
    "latitude": -37.8142548,
    "longitude": 144.974186,
    "map": "https://maps.app.goo.gl/eizx1R12PAWe9sxa8",
    "occasion": "Restaurant",
    "price": 4.5,
    "images": []
  },
  {
    "name": "Elchi",
    "rating": 71,
    "style": "Indian",
    "region": "Asia",
    "comment": "Decent Indian but portions were surprisingly small",
    "latitude": -37.815732,
    "longitude": 144.972688,
    "map": "https://maps.app.goo.gl/sZ35hszppUiUTdez9",
    "occasion": "Restaurant",
    "price": 3.0,
    "images": []
  },
  {
    "name": "Embla",
    "rating": 85,
    "style": "Wine Bar",
    "region": "Australian",
    "comment": "Super trendy wine bar. Great steak",
    "latitude": -37.813394,
    "longitude": 144.9686092,
    "map": "https://maps.app.goo.gl/AUsDQfXXZ4MaCzev7",
    "occasion": "Restaurant",
    "price": 4.0,
    "images": [
      "pics/Embla/IMG_6358.jpg",
      "pics/Embla/IMG_6362.jpg",
      "pics/Embla/IMG_6364.jpg"
    ]
  },
  {
    "name": "Entrecote",
    "rating": 81,
    "style": "French",
    "region": "European",
    "comment": "They do a really good steak frites",
    "latitude": -37.849427,
    "longitude": 144.991519,
    "map": "https://maps.app.goo.gl/kkMb9c1HZUAjxMBz5",
    "occasion": "Restaurant",
    "price": 3.5,
    "images": []
  },
  {
    "name": "Farmers Daughter",
    "rating": 80,
    "style": "Contemporary",
    "region": "Australian",
    "comment": "Highly recommended but a bit of a let down. 3/4 of us got sick after",
    "latitude": -37.8135541,
    "longitude": 144.9710252,
    "map": "https://maps.app.goo.gl/sMKeoR8KdsJbdrjB7",
    "occasion": "Restaurant",
    "price": 5.0,
    "images": []
  },
  {
    "name": "Hazel",
    "rating": 84,
    "style": "Contemporary",
    "region": "Australian",
    "comment": "Trendy contemporary Australian, good for groups",
    "latitude": -37.8158872,
    "longitude": 144.9687316,
    "map": "https://maps.app.goo.gl/nT7G1toUtpZt84J56",
    "occasion": "Restaurant",
    "price": 4.0,
    "images": []
  },
  {
    "name": "Kisume",
    "rating": 89,
    "style": "Japanese",
    "region": "Asia",
    "comment": "High quality Japanese with great service",
    "latitude": -37.8161,
    "longitude": 144.9687994,
    "map": "https://maps.app.goo.gl/y8ps36MC6M1FLVQB8",
    "occasion": "Restaurant",
    "price": 4.5,
    "images": [
      "pics/Kisume/20241221_193047.jpg",
      "pics/Kisume/20241221_193743.jpg"
    ]
  },
  {
    "name": "Kisume Chefs Table",
    "rating": 93,
    "style": "Japanese",
    "region": "Asia",
    "comment": "Unique Chef's table dining experience with incredible sushi",
    "latitude": -37.8162147,
    "longitude": 144.9687994,
    "map": "https://maps.app.goo.gl/y8ps36MC6M1FLVQB8",
    "occasion": "Restaurant",
    "price": 5.0,
    "images": [
      "pics/Kisume Chefs Table/20250228_215558.jpg",
      "pics/Kisume Chefs Table/20250228_221835.jpg",
      "pics/Kisume Chefs Table/IMG_5921.jpg",
      "pics/Kisume Chefs Table/IMG_5922.jpg",
      "pics/Kisume Chefs Table/IMG_5923.jpg",
      "pics/Kisume Chefs Table/IMG_5925.jpg",
      "pics/Kisume Chefs Table/IMG_5926.jpg",
      "pics/Kisume Chefs Table/IMG_5927.jpg",
      "pics/Kisume Chefs Table/IMG_5928.jpg",
      "pics/Kisume Chefs Table/IMG_5931.jpg",
      "pics/Kisume Chefs Table/IMG_5932.jpg",
      "pics/Kisume Chefs Table/IMG_5934.jpg",
      "pics/Kisume Chefs Table/IMG_5936.jpg",
      "pics/Kisume Chefs Table/IMG_5937.jpg",
      "pics/Kisume Chefs Table/IMG_5939.jpg",
      "pics/Kisume Chefs Table/IMG_5940.jpg",
      "pics/Kisume Chefs Table/IMG_5941.jpg",
      "pics/Kisume Chefs Table/IMG_5942.jpg",
      "pics/Kisume Chefs Table/IMG_5944.jpg",
      "pics/Kisume Chefs Table/IMG_5945.jpg",
      "pics/Kisume Chefs Table/IMG_5946.jpg",
      "pics/Kisume Chefs Table/IMG_5947.jpg",
      "pics/Kisume Chefs Table/IMG_5948.jpg",
      "pics/Kisume Chefs Table/IMG_5951.jpg",
      "pics/Kisume Chefs Table/IMG_5952.jpg",
      "pics/Kisume Chefs Table/IMG_5954.jpg",
      "pics/Kisume Chefs Table/IMG_5957.jpg",
      "pics/Kisume Chefs Table/IMG_5958.jpg",
      "pics/Kisume Chefs Table/IMG_5959.jpg",
      "pics/Kisume Chefs Table/IMG_5960.jpg",
      "pics/Kisume Chefs Table/IMG_5962.jpg",
      "pics/Kisume Chefs Table/IMG_5964.jpg",
      "pics/Kisume Chefs Table/IMG_5965.jpg",
      "pics/Kisume Chefs Table/IMG_5969.jpg"
    ]
  },
  {
    "name": "Lucy Liu",
    "rating": 87,
    "style": "Asian Fusion",
    "region": "Asia",
    "comment": "Super tasty, super trendy Asian fusion.",
    "latitude": -37.8159928,
    "longitude": 144.9699538,
    "map": "https://maps.app.goo.gl/vyXvTi8mXJhA2pji9",
    "occasion": "Restaurant",
    "price": 3.5,
    "images": []
  },
  {
    "name": "Maha",
    "rating": 86,
    "style": "Middle-Eastern",
    "region": "Middle East/Africa",
    "comment": "High End fine dining. Multi-course menu 4+ hours. All delicious",
    "latitude": -37.8181528,
    "longitude": 144.962662,
    "map": "https://maps.app.goo.gl/jZumGWz4mUnjHt2N8",
    "occasion": "Restaurant",
    "price": 5.0,
    "images": []
  },
  {
    "name": "Mamasita",
    "rating": 82,
    "style": "Mexican",
    "region": "Central/South American",
    "comment": "Stumbled across this super tasty, slighlty fancier mexican place.",
    "latitude": -37.8136394,
    "longitude": 144.9733909,
    "map": "https://maps.app.goo.gl/C7PCntWqwNbfbej19",
    "occasion": "Restaurant",
    "price": 3.5,
    "images": []
  },
  {
    "name": "Marion",
    "rating": 85,
    "style": "French",
    "region": "European",
    "comment": "Busy french wine bar is trendy neighbourhood",
    "latitude": -37.8054734,
    "longitude": 144.9758542,
    "map": "https://maps.app.goo.gl/vvUr5sJxLtsX533x8",
    "occasion": "Restaurant",
    "price": 4.0,
    "images": []
  },
  {
    "name": "Marmelo",
    "rating": 87,
    "style": "Portugeuse",
    "region": "European",
    "comment": "Busy Portugeuse restaurant, great wine",
    "latitude": -37.8132791,
    "longitude": 144.9685141,
    "map": "https://maps.app.goo.gl/m9SNYH6bkYiEbHDDA",
    "occasion": "Restaurant",
    "price": 4.0,
    "images": [
      "pics/Marmelo/IMG_7512.jpg",
      "pics/Marmelo/IMG_7515.jpg",
      "pics/Marmelo/IMG_7516.jpg",
      "pics/Marmelo/IMG_7520.jpg",
      "pics/Marmelo/IMG_7521.jpg",
      "pics/Marmelo/IMG_7522.jpg",
      "pics/Marmelo/IMG_7523.jpg",
      "pics/Marmelo/IMG_7525.jpg"
    ]
  },
  {
    "name": "Minamishima",
    "rating": 94,
    "style": "Japanese",
    "region": "Asia",
    "comment": "Exceptional, high quality sushi and attention to detail.",
    "latitude": -37.8197444,
    "longitude": 145.0050252,
    "map": "https://maps.app.goo.gl/goNK3cT5DGCQLeJx9",
    "occasion": "Restaurant",
    "price": 5.0,
    "images": [
      "pics/Minamishima/20250620_202136.jpg",
      "pics/Minamishima/20250620_211132.jpg",
      "pics/Minamishima/IMG_7625.jpg",
      "pics/Minamishima/IMG_7626.jpg",
      "pics/Minamishima/IMG_7629.jpg",
      "pics/Minamishima/IMG_7630.jpg",
      "pics/Minamishima/IMG_7631.jpg",
      "pics/Minamishima/IMG_7632.jpg",
      "pics/Minamishima/IMG_7633.jpg",
      "pics/Minamishima/IMG_7634.jpg",
      "pics/Minamishima/IMG_7636.jpg",
      "pics/Minamishima/IMG_7637.jpg",
      "pics/Minamishima/IMG_7638.jpg",
      "pics/Minamishima/IMG_7639.jpg",
      "pics/Minamishima/IMG_7640.jpg",
      "pics/Minamishima/IMG_7641.jpg",
      "pics/Minamishima/IMG_7642.jpg",
      "pics/Minamishima/IMG_7643.jpg",
      "pics/Minamishima/IMG_7644.jpg",
      "pics/Minamishima/IMG_7645.jpg",
      "pics/Minamishima/IMG_7646.jpg",
      "pics/Minamishima/IMG_7647.jpg",
      "pics/Minamishima/IMG_7649.jpg"
    ]
  },
  {
    "name": "Movida",
    "rating": 89,
    "style": "Spanish",
    "region": "European",
    "comment": "Melbourne staple, one of the best meals we've had.",
    "latitude": -37.8167167,
    "longitude": 144.9691417,
    "map": "https://maps.app.goo.gl/LgDaPQRKXA3YtdPZA",
    "occasion": "Restaurant",
    "price": 4.0,
    "images": [
      "pics/Movida/IMG_6800.jpg",
      "pics/Movida/IMG_6801.jpg",
      "pics/Movida/IMG_6802.jpg",
      "pics/Movida/IMG_6804.jpg",
      "pics/Movida/IMG_6805.jpg",
      "pics/Movida/IMG_6810.jpg",
      "pics/Movida/IMG_6813.jpg"
    ]
  },
  {
    "name": "Nomad",
    "rating": 84,
    "style": "Middle-Eastern",
    "region": "Middle East/Africa",
    "comment": "Busy Middle-Eastern restaurat, multiple courses, great bread",
    "latitude": -37.8161891,
    "longitude": 144.9683115,
    "map": "https://maps.app.goo.gl/UJAqzEon8Q9yecV88",
    "occasion": "Restaurant",
    "price": 4.0,
    "images": []
  },
  {
    "name": "Pastuso",
    "rating": 85,
    "style": "Peruvian",
    "region": "Central/South American",
    "comment": "Lots of tasty, spicy deliciousness",
    "latitude": -37.8158403,
    "longitude": 144.9710359,
    "map": "https://maps.app.goo.gl/6ZRhWSnxqwC39p9N7",
    "occasion": "Restaurant",
    "price": 3.5,
    "images": []
  },
  {
    "name": "Pearl Diver",
    "rating": 79,
    "style": "Oyster Bar",
    "region": "Australian",
    "comment": "Predominantly a cocktail/oyster bar but decent set menu also",
    "latitude": -37.8107796,
    "longitude": 144.9707955,
    "map": "https://maps.app.goo.gl/QtDJbqhEDeotcaN77",
    "occasion": "Cocktail",
    "price": 3.0,
    "images": []
  },
  {
    "name": "Pincho Disco",
    "rating": 83,
    "style": "Latin American",
    "region": "Central/South American",
    "comment": "Bustling latin american joint, decent sized set menus",
    "latitude": -37.8063845,
    "longitude": 144.9851097,
    "map": "https://maps.app.goo.gl/3e3T76W9n4YqgenG9",
    "occasion": "Restaurant",
    "price": 3.5,
    "images": []
  },
  {
    "name": "Robata",
    "rating": 85,
    "style": "Japanese Grill",
    "region": "Asia",
    "comment": "Plenty of tast meat and sushi. Very cool décor",
    "latitude": -37.8158043,
    "longitude": 144.9725346,
    "map": "https://maps.app.goo.gl/DUUwdVRRn8Yp8oDN8",
    "occasion": "Restaurant",
    "price": 4.0,
    "images": [
      "pics/Robata/IMG_6821.jpg",
      "pics/Robata/IMG_6823.jpg",
      "pics/Robata/IMG_6824.jpg",
      "pics/Robata/IMG_6825.jpg",
      "pics/Robata/IMG_6826.jpg"
    ]
  },
  {
    "name": "Rue Du Tranh",
    "rating": 83,
    "style": "Vietnamese",
    "region": "Asia",
    "comment": "Random Vietnamese/French restaurant, long wait for food but everything super tasty",
    "latitude": -37.7950286,
    "longitude": 144.9792506,
    "map": "https://maps.app.goo.gl/gsFShWJYbq7RvUKK9",
    "occasion": "Restaurant",
    "price": 3.5,
    "images": []
  },
  {
    "name": "San Telmo",
    "rating": 90,
    "style": "Argentinian",
    "region": "Central/South American",
    "comment": "One of our favourites, amazing steak. Great with friends",
    "latitude": -37.8121636,
    "longitude": 144.9724132,
    "map": "https://maps.app.goo.gl/YdmCVSdrFZyAV87E8",
    "occasion": "Restaurant",
    "price": 4.5,
    "images": []
  },
  {
    "name": "Serai",
    "rating": 86,
    "style": "Phillipino Fusion",
    "region": "Asia",
    "comment": "Not strictly speaking Filipino food I'm told but very tasty/different all the same",
    "latitude": -37.8138937,
    "longitude": 144.9616895,
    "map": "https://maps.app.goo.gl/sqizgLXTTNf7xPrw9",
    "occasion": "Restaurant",
    "price": 4.0,
    "images": []
  },
  {
    "name": "The Abyssinian",
    "rating": 81,
    "style": "Ethiopian",
    "region": "Middle East/Africa",
    "comment": "No cutlery type food, Incredibly cheap, favourful food.",
    "latitude": -37.7885398,
    "longitude": 144.9318371,
    "map": "https://maps.app.goo.gl/4FeZLSv4LMNt9MaQ8",
    "occasion": "Restaurant",
    "price": 2.0,
    "images": []
  },
  {
    "name": "The Walrus",
    "rating": 82,
    "style": "Wine Bar",
    "region": "Australian",
    "comment": "Nice wine bar  near St Kilda, nice place for a drink prior to a concert in the Palais",
    "latitude": -37.8643224,
    "longitude": 144.9822634,
    "map": "https://maps.app.goo.gl/BTCbPn4fnEYPMtQB9",
    "occasion": "Restaurant",
    "price": 2.5,
    "images": []
  },
  {
    "name": "Tipo 0.0",
    "rating": 88,
    "style": "Italian",
    "region": "European",
    "comment": "Absolutely delicious Italian with clever sharing setup.",
    "latitude": -37.8135522,
    "longitude": 144.9619835,
    "map": "https://maps.app.goo.gl/dkDv38XGsvyqyuD67",
    "occasion": "Restaurant",
    "price": 4.0,
    "images": []
  },
  {
    "name": "Tonka",
    "rating": 91,
    "style": "Indian",
    "region": "Asia",
    "comment": "Really trendy/tasty indian for very reasonable price",
    "latitude": -37.8156991,
    "longitude": 144.9714107,
    "map": "https://maps.app.goo.gl/GKktrSmb7xz6ZVY56",
    "occasion": "Restaurant",
    "price": 3.5,
    "images": []
  },
  {
    "name": "Trattoria Emilia",
    "rating": 78,
    "style": "Italian",
    "region": "European",
    "comment": "Very decent Italian, went for work dinner",
    "latitude": -37.815333,
    "longitude": 144.9626731,
    "map": "https://maps.app.goo.gl/7Vo6ggQnszavkcSK6",
    "occasion": "Restaurant",
    "price": 4.0,
    "images": []
  },
  {
    "name": "Tres a Cinco",
    "rating": 81,
    "style": "Mexican",
    "region": "Central/South American",
    "comment": "Super trendy Mexican on Hosier lane",
    "latitude": -37.8164513,
    "longitude": 144.9690997,
    "map": "https://maps.app.goo.gl/rB6L5Twrevu1MzAU6",
    "occasion": "Restaurant",
    "price": 3.5,
    "images": []
  },
  {
    "name": "Vinesmith",
    "rating": 88,
    "style": "Wine Bar",
    "region": "European",
    "comment": "Our local wine bar, newly opened. Still relatively cheap, cosy French bistro upstairs",
    "latitude": -37.814523,
    "longitude": 144.974164,
    "map": "https://maps.app.goo.gl/2T9hTCovxEqLUP3n6",
    "occasion": "Restaurant",
    "price": 2.5,
    "images": []
  }
]